Response Date,Fixed Time CallClosed,Address,City,Latitude,Longitude,Problem,Problem_Simple,Unix,Date,Hour,Grid_Num
2021-02-01 20:32:54,2021-02-01 20:40:53.320,209 Forsythe St,RED BANK,35.12794,-85.280232,ACC2-MVC No Injuries,,1612211574.0,2021-02-01,20,
2021-02-01 19:13:02,2021-02-01 20:04:02.000,4316 Tee Pee Dr,CHATTANOOGA,35.07384,-85.20932,ACC2-MVC No Injuries,,1612206782.0,2021-02-01,19,
2021-02-01 18:33:10,2021-02-01 19:24:05.387,5830 Brainerd Rd,CHATTANOOGA,35.012306,-85.212241,ACC2-MVC No Injuries,,1612204390.0,2021-02-01,18,
2021-02-01 17:57:09,2021-02-01 18:38:04.090,401 Georgia Ave,CHATTANOOGA,35.052248,-85.304603,ACC2-MVC No Injuries,,1612202229.0,2021-02-01,17,
2021-02-01 17:34:29,2021-02-01 17:57:54.000,4339 RINGGOLD RD,EAST RIDGE,34.996066,-85.236931,ACC2-MVC No Injuries,,1612200869.0,2021-02-01,17,
2021-02-01 17:22:25,2021-02-01 17:53:48.933,700 Highway 153 Sb,CHATTANOOGA,35.109026,-85.229317,ACCDEL-MVC Delayed,,1612200145.0,2021-02-01,17,
2021-02-01 17:21:49,2021-02-01 18:03:14.360,720 E 4TH ST,CHATTANOOGA,35.050355,-85.30093,ACC1-MVC Injuries,,1612200109.0,2021-02-01,17,
2021-02-01 17:21:48,2021-02-01 17:46:27.127,E 4th St / Houston St,CHATTANOOGA,35.051384,-85.301658,ACC1-MVC Injuries,,1612200108.0,2021-02-01,17,
2021-02-01 17:14:26,2021-02-01 17:15:47.000,526-698 E 4th St,CHATTANOOGA,35.05178,-85.30294,ACC3-MVC Unknown Injuries,,1612199666.0,2021-02-01,17,
2021-02-01 17:13:04,2021-02-01 20:19:18.000,E 4th St / Houston St,CHATTANOOGA,35.051384,-85.301658,ACC1-MVC Injuries,,1612199584.0,2021-02-01,17,
2021-02-01 17:10:02,2021-02-01 18:24:33.817,4799 N ACCESS RD,CHATTANOOGA,35.111199,-85.230454,ACC2-MVC No Injuries,,1612199402.0,2021-02-01,17,
2021-02-01 16:54:22,2021-02-01 17:30:05.620,2000 Gunbarrel Rd,CHATTANOOGA,35.030307,-85.155058,ACC2-MVC No Injuries,,1612198462.0,2021-02-01,16,
2021-02-01 16:18:47,2021-02-01 16:27:20.193,3213 Calhoun Ave,CHATTANOOGA,35.00712,-85.294538,ACC4-MVC Entrapment,,1612196327.0,2021-02-01,16,
2021-02-01 16:18:46,2021-02-01 16:28:43.770,3213 Calhoun Ave,CHATTANOOGA,35.00712,-85.294538,ACC4-MVC Entrapment,,1612196326.0,2021-02-01,16,
2021-02-01 16:18:12,2021-02-01 17:03:54.550,3213 Calhoun Ave,CHATTANOOGA,35.00712,-85.294538,ACC4-MVC Entrapment,,1612196292.0,2021-02-01,16,
2021-02-01 15:58:31,2021-02-01 16:44:09.580,718 E 8th St,CHATTANOOGA,35.043869,-85.299541,ACC2-MVC No Injuries,,1612195111.0,2021-02-01,15,
2021-02-01 15:55:08,2021-02-01 16:27:58.197,5701 Brainerd Rd,CHATTANOOGA,35.012055,-85.21394,ACC2-MVC No Injuries,,1612194908.0,2021-02-01,15,
2021-02-01 15:51:41,2021-02-01 16:50:50.977,900 WAUHATCHIE PIKE,CHATTANOOGA,34.989646,-85.387849,ACC2-MVC No Injuries,,1612194701.0,2021-02-01,15,
2021-02-01 15:43:49,2021-02-01 15:54:03.517,5730 BRAINERD RD,CHATTANOOGA,35.011425,-85.213038,ACC1-MVC Injuries,,1612194229.0,2021-02-01,15,
2021-02-01 15:43:48,2021-02-01 15:55:35.977,Brainerd Rd / Old Mission Rd,CHATTANOOGA,35.011607,-85.21422,ACC1-MVC Injuries,,1612194228.0,2021-02-01,15,
2021-02-01 15:43:14,2021-02-01 16:30:57.163,5730 BRAINERD RD,CHATTANOOGA,35.011425,-85.213038,ACC1-MVC Injuries,,1612194194.0,2021-02-01,15,
2021-02-01 15:34:40,2021-02-01 15:51:28.680,6007 - 6013 Shallowford Rd,CHATTANOOGA,35.0539,-85.18789,ACC1-MVC Injuries,,1612193680.0,2021-02-01,15,
2021-02-01 15:34:39,2021-02-01 17:23:59.867,6007 - 6013 Shallowford Rd,CHATTANOOGA,35.0539,-85.18789,ACC1-MVC Injuries,,1612193679.0,2021-02-01,15,
2021-02-01 15:34:20,2021-02-01 16:39:36.423,6007 - 6013 Shallowford Rd,CHATTANOOGA,35.0539,-85.18789,ACC1-MVC Injuries,,1612193660.0,2021-02-01,15,
2021-02-01 15:30:57,2021-02-01 17:07:07.750,1043 Blackford St,CHATTANOOGA,35.04921,-85.287418,ACCDEL-MVC Delayed,,1612193457.0,2021-02-01,15,
2021-02-01 15:15:08,2021-02-01 16:06:05.807,SPRING CREEK RD / S TERRACE,CHATTANOOGA,35.003333,-85.219192,ACC2-MVC No Injuries,,1612192508.0,2021-02-01,15,
2021-02-01 14:46:51,2021-02-01 15:31:34.090,2500 WILCOX BLVD,CHATTANOOGA,35.051718,-85.25651,ACC2-MVC No Injuries,,1612190811.0,2021-02-01,14,
2021-02-01 14:30:16,2021-02-01 15:23:20.727,6538 Satjanon Dr,HAMILTON COUNTY,35.101639,-85.043084,ACC2-MVC No Injuries,,1612189816.0,2021-02-01,14,
2021-02-01 13:55:38,2021-02-01 14:40:18.283,2727 ROSSVILLE BLVD,CHATTANOOGA,35.015639,-85.293809,ACCDEL-MVC Delayed,,1612187738.0,2021-02-01,13,
2021-02-01 13:47:56,2021-02-01 14:08:49.557,4090-4098 Webb Rd,CHATTANOOGA,35.09583,-85.18599,ACC2-MVC No Injuries,,1612187276.0,2021-02-01,13,
2021-02-01 13:24:28,2021-02-01 13:49:43.177,E 28TH ST / 4TH AVE,CHATTANOOGA,35.011363,-85.283206,ACC2-MVC No Injuries,,1612185868.0,2021-02-01,13,
2021-02-01 13:03:02,2021-02-01 13:05:30.123,1-119 Highway 153 Nb,CHATTANOOGA,35.034347,-85.183222,ACC2-MVC No Injuries,,1612184582.0,2021-02-01,13,
2021-02-01 13:02:55,2021-02-01 14:20:40.027,1-9 Exit Lee Hwy On Ramp Nb,CHATTANOOGA,35.033228,-85.182121,ACC3-MVC Unknown Injuries,,1612184575.0,2021-02-01,13,
2021-02-01 12:37:07,2021-02-01 12:40:25.420,4300 N Access Rd,CHATTANOOGA,35.112083,-85.253134,ACC2-MVC No Injuries,,1612183027.0,2021-02-01,12,
2021-02-01 12:34:02,2021-02-01 12:54:52.113,4500 N Access Rd,CHATTANOOGA,35.110055,-85.249862,ACC1-MVC Injuries,,1612182842.0,2021-02-01,12,
2021-02-01 12:34:02,2021-02-01 12:57:59.687,4500 N Access Rd,CHATTANOOGA,35.110055,-85.249862,ACC1-MVC Injuries,,1612182842.0,2021-02-01,12,
2021-02-01 12:33:32,2021-02-01 14:39:33.220,4500 N Access Rd,CHATTANOOGA,35.110055,-85.249862,ACC2-MVC No Injuries,,1612182812.0,2021-02-01,12,
2021-02-01 12:33:24,2021-02-01 12:37:27.653,4500-4598 N Access Rd,CHATTANOOGA,35.11138,-85.24978,ACC2-MVC No Injuries,,1612182804.0,2021-02-01,12,
2021-02-01 12:05:13,2021-02-01 12:29:38.463,Signal Mountain Rd / Dayton Blvd,RED BANK,35.083977,-85.317611,ACC2-MVC No Injuries,,1612181113.0,2021-02-01,12,
2021-02-01 12:01:52,2021-02-01 12:46:13.113,364 Northgate Mall Dr,CHATTANOOGA,35.127452,-85.237341,ACC2-MVC No Injuries,,1612180912.0,2021-02-01,12,
2021-02-01 11:39:46,2021-02-01 11:44:52.003,Gadd Rd / Highway 153,CHATTANOOGA,35.14182,-85.248735,ACC1-MVC Injuries,,1612179586.0,2021-02-01,11,
2021-02-01 11:39:45,2021-02-01 11:51:33.270,Gadd Rd / Highway 153,CHATTANOOGA,35.14182,-85.248735,ACC1-MVC Injuries,,1612179585.0,2021-02-01,11,
2021-02-01 11:34:41,2021-02-01 12:36:46.017,Gadd Rd / Highway 153,CHATTANOOGA,35.14182,-85.248735,ACC1-MVC Injuries,,1612179281.0,2021-02-01,11,
2021-02-01 11:19:43,2021-02-01 12:10:04.803,Market St / Alton Park Blvd,CHATTANOOGA,35.019028,-85.312069,ACC2-MVC No Injuries,,1612178383.0,2021-02-01,11,
2021-02-01 11:18:38,2021-02-01 12:51:14.107,1812 Gunbarrel Rd,CHATTANOOGA,35.023121,-85.15637,ACC2-MVC No Injuries,,1612178318.0,2021-02-01,11,
2021-02-01 09:24:46,2021-02-01 09:52:58.220,4881 Taylor Cir,COLLEGEDALE,35.048249,-85.051939,ACCDEL-MVC Delayed,,1612171486.0,2021-02-01,09,
2021-02-01 09:07:39,2021-02-01 09:55:49.147,600 MCCALLIE AVE,CHATTANOOGA,35.045946,-85.301604,ACC2-MVC No Injuries,,1612170459.0,2021-02-01,09,
2021-02-01 08:24:20,2021-02-01 09:05:34.333,5600 Highway 58,CHATTANOOGA,35.10827,-85.145162,ACC2-MVC No Injuries,,1612167860.0,2021-02-01,08,
2021-02-01 08:11:56,2021-02-01 08:23:22.747,Signal Mountain Blvd / Sunset Dr,CHATTANOOGA,35.107384,-85.348332,ACC1-MVC Injuries,,1612167116.0,2021-02-01,08,
2021-02-01 08:11:56,2021-02-01 08:30:14.620,Signal Mountain Blvd / Sunset Dr,CHATTANOOGA,35.107384,-85.348332,ACC1-MVC Injuries,,1612167116.0,2021-02-01,08,
2021-02-01 08:00:00,2021-02-01 09:15:23.650,Signal Mountain Blvd / Sunset Dr,CHATTANOOGA,35.107384,-85.348332,ACC1-MVC Injuries,,1612166400.0,2021-02-01,08,
2021-02-01 07:57:34,2021-02-01 08:01:03.190,100 Interstate 75 Sb,EAST RIDGE,34.997308,-85.208942,ACC2-MVC No Injuries,,1612166254.0,2021-02-01,07,
2021-02-01 07:56:57,2021-02-01 08:13:39.797,3500 N ORCHARD KNOB AVE,CHATTANOOGA,35.078257,-85.251068,ACC1-MVC Injuries,,1612166217.0,2021-02-01,07,
2021-02-01 07:56:57,2021-02-01 08:12:51.890,1811 Allin St,CHATTANOOGA,35.078273,-85.252306,ACC1-MVC Injuries,,1612166217.0,2021-02-01,07,
2021-02-01 07:56:23,2021-02-01 09:42:58.380,1815 ALLIN ST,CHATTANOOGA,35.078204,-85.251547,ACC2-MVC No Injuries,,1612166183.0,2021-02-01,07,
2021-02-01 07:56:21,2021-02-01 08:56:35.803,6700 Ringgold Rd,EAST RIDGE,34.990003,-85.199397,ACC2-MVC No Injuries,,1612166181.0,2021-02-01,07,
2021-02-01 07:40:04,2021-02-01 08:04:52.110,320 N HOLTZCLAW AVE,CHATTANOOGA,35.042954,-85.28002,ACC2-MVC No Injuries,,1612165204.0,2021-02-01,07,
2021-02-01 06:58:15,2021-02-01 07:59:58.497,120 INTERSTATE 75 NB,CHATTANOOGA,34.998666,-85.209554,ACC2-MVC No Injuries,,1612162695.0,2021-02-01,06,
2021-02-01 06:52:39,2021-02-01 07:06:48.610,1500-1599 Courtland Dr,HAMILTON COUNTY,35.17648,-85.202841,ACC2-MVC No Injuries,,1612162359.0,2021-02-01,06,
2021-02-01 06:41:07,2021-02-01 07:53:27.953,610 Highway 153 Sb,CHATTANOOGA,35.104437,-85.229114,ACC2-MVC No Injuries,,1612161667.0,2021-02-01,06,
2021-02-01 06:37:29,2021-02-01 07:49:02.340,5419 MCCAHILL RD,CHATTANOOGA,35.150955,-85.281525,ACC2-MVC No Injuries,,1612161449.0,2021-02-01,06,
2021-02-01 04:48:04,2021-02-01 05:01:32.930,18310-18399 INTERSTATE 24 WB,CHATTANOOGA,35.010121,-85.24121,ACC4-MVC Entrapment,,1612154884.0,2021-02-01,04,
2021-02-01 04:24:06,2021-02-01 07:05:40.677,18311-18399 INTERSTATE 24 WB,CHATTANOOGA,35.0131,-85.24916,ACC1-MVC Injuries,,1612153446.0,2021-02-01,04,
2021-02-01 02:53:04,2021-02-01 03:11:40.480,3014 WOODSIDE ST,CHATTANOOGA,35.010585,-85.272933,ACC1-MVC Injuries,,1612147984.0,2021-02-01,02,
2021-02-01 02:53:04,2021-02-01 04:03:13.353,3014 WOODSIDE ST,CHATTANOOGA,35.010585,-85.272933,ACC1-MVC Injuries,,1612147984.0,2021-02-01,02,
2021-02-01 02:51:08,2021-02-01 10:42:18.377,2490-2549 WESTSIDE DR,CHATTANOOGA,35.00951,-85.271637,ACC1-MVC Injuries,,1612147868.0,2021-02-01,02,
2021-02-02 22:11:28,2021-02-02 22:31:10.413,2650 CORRAL RD,HAMILTON COUNTY,35.197411,-85.340243,ACC2-MVC No Injuries,,1612303888.0,2021-02-02,22,
2021-02-02 22:04:28,2021-02-03 00:10:31.637,Broad St / Cummings Hwy,CHATTANOOGA,35.013727,-85.328285,ACC2-MVC No Injuries,,1612303468.0,2021-02-02,22,
2021-02-02 21:47:34,2021-02-02 22:04:52.147,1106 Green Pond Rd,SODDY DAISY,35.238912,-85.157837,ACC1-MVC Injuries,,1612302454.0,2021-02-02,21,
2021-02-02 21:47:33,2021-02-02 22:10:39.593,1106 Green Pond Rd,SODDY DAISY,35.238912,-85.157837,ACC1-MVC Injuries,,1612302453.0,2021-02-02,21,
2021-02-02 21:46:11,2021-02-02 22:31:04.860,1106 Green Pond Rd,SODDY DAISY,35.238912,-85.157837,ACC1-MVC Injuries,,1612302371.0,2021-02-02,21,
2021-02-02 20:59:25,2021-02-02 21:36:28.397,2100 Hamilton Place Blvd,CHATTANOOGA,35.034528,-85.158706,ACCDEL-MVC Delayed,,1612299565.0,2021-02-02,20,
2021-02-02 20:45:54,2021-02-02 21:04:40.790,Dodds Ave / E 23rd St,CHATTANOOGA,35.01572,-85.273583,ACC1-MVC Injuries,,1612298754.0,2021-02-02,20,
2021-02-02 20:45:54,2021-02-02 21:29:15.227,2115 DODDS AVE,CHATTANOOGA,35.016228,-85.273583,ACC1-MVC Injuries,,1612298754.0,2021-02-02,20,
2021-02-02 20:45:32,2021-02-02 21:22:57.247,2115 DODDS AVE,CHATTANOOGA,35.016228,-85.273583,ACC1-MVC Injuries,,1612298732.0,2021-02-02,20,
2021-02-02 20:22:19,2021-02-02 21:22:01.307,1820 Ashmore Ave,RED BANK,35.08496,-85.3127,ACC2-MVC No Injuries,,1612297339.0,2021-02-02,20,
2021-02-02 20:04:43,2021-02-02 21:23:08.090,E 3RD ST / N ORCHARD KNOB AVE,CHATTANOOGA,35.040879,-85.27199,ACC2-MVC No Injuries,,1612296283.0,2021-02-02,20,
2021-02-02 19:54:43,2021-02-02 20:57:30.260,5700 ROPER ST,EAST RIDGE,34.986357,-85.224835,ACCDEL-MVC Delayed,,1612295683.0,2021-02-02,19,
2021-02-02 18:49:13,2021-02-02 21:18:51.307,17480 INTERSTATE 24 EB,CHATTANOOGA,35.025742,-85.371348,ACC2-MVC No Injuries,,1612291753.0,2021-02-02,18,
2021-02-02 18:36:16,2021-02-02 18:40:14.403,1614 Green Pond Rd,HAMILTON COUNTY,35.240365,-85.135307,ACC1-MVC Injuries,,1612290976.0,2021-02-02,18,
2021-02-02 18:36:16,2021-02-02 18:37:41.420,1614 Green Pond Rd,HAMILTON COUNTY,35.240365,-85.135307,ACC1-MVC Injuries,,1612290976.0,2021-02-02,18,
2021-02-02 18:36:01,2021-02-02 18:52:55.277,1614 Green Pond Rd,HAMILTON COUNTY,35.240365,-85.135307,ACC2-MVC No Injuries,,1612290961.0,2021-02-02,18,
2021-02-02 18:21:08,2021-02-02 20:34:44.317,8021 E BRAINERD RD,CHATTANOOGA,35.004947,-85.151033,ACCDEL-MVC Delayed,,1612290068.0,2021-02-02,18,
2021-02-02 18:00:34,2021-02-02 18:14:33.893,5588 Little Debbie Pkwy,COLLEGEDALE,35.08082,-85.06329,ACC1-MVC Injuries,,1612288834.0,2021-02-02,18,
2021-02-02 18:00:34,2021-02-02 18:11:56.050,5588 Little Debbie Pkwy,COLLEGEDALE,35.08082,-85.06329,ACC1-MVC Injuries,,1612288834.0,2021-02-02,18,
2021-02-02 18:00:08,2021-02-02 18:29:06.643,5588 Little Debbie Pkwy,COLLEGEDALE,35.08082,-85.06329,ACC1-MVC Injuries,,1612288808.0,2021-02-02,18,
2021-02-02 17:58:48,2021-02-02 18:07:00.597,18200 Interstate 24 Wb,CHATTANOOGA,35.019224,-85.267436,ACC2-MVC No Injuries,,1612288728.0,2021-02-02,17,
2021-02-02 17:58:00,2021-02-02 18:34:15.397,18100 INTERSTATE 24 EB,CHATTANOOGA,35.016491,-85.28069,ACC2-MVC No Injuries,,1612288680.0,2021-02-02,17,
2021-02-02 17:57:16,2021-02-02 18:14:06.690,E Brainerd Rd / Graysville Rd,CHATTANOOGA,35.003975,-85.149572,ACC3-MVC Unknown Injuries,,1612288636.0,2021-02-02,17,
2021-02-02 17:46:27,2021-02-02 18:14:13.117,2500 Old Wauhatchie Pike,CHATTANOOGA,35.018883,-85.351839,ACC2-MVC No Injuries,,1612287987.0,2021-02-02,17,
2021-02-02 17:36:01,2021-02-02 17:51:34.920,18461-18509 Interstate 24 Wb,CHATTANOOGA,35.004634,-85.223066,ACC2-MVC No Injuries,,1612287361.0,2021-02-02,17,
2021-02-02 17:30:26,2021-02-02 18:11:26.250,340 INTERSTATE 75 SB,CHATTANOOGA,35.016659,-85.179377,ACC2-MVC No Injuries,,1612287026.0,2021-02-02,17,
2021-02-02 17:22:06,2021-02-02 18:19:57.013,3200 REDDING RD,RED BANK,35.106892,-85.29624,ACC2-MVC No Injuries,,1612286526.0,2021-02-02,17,
2021-02-02 16:52:39,2021-02-02 17:20:02.653,Jenkins Rd / Standifer Gap Rd,HAMILTON COUNTY,35.044349,-85.128355,ACC2-MVC No Injuries,,1612284759.0,2021-02-02,16,
2021-02-02 16:48:13,2021-02-02 17:58:35.753,18200 Interstate 24 Wb,CHATTANOOGA,35.019224,-85.267436,ACC2-MVC No Injuries,,1612284493.0,2021-02-02,16,
2021-02-02 16:44:43,2021-02-02 18:15:50.457,17200 INTERSTATE 24 EB,CHATTANOOGA,34.994957,-85.399063,ACC2-MVC No Injuries,,1612284283.0,2021-02-02,16,
2021-02-02 16:40:16,2021-02-02 17:00:32.323,2090 Highway 27 Nb,SODDY DAISY,35.27646,-85.155689,ACC1-MVC Injuries,,1612284016.0,2021-02-02,16,
2021-02-02 16:40:15,2021-02-02 16:48:08.547,2090 Highway 27 Nb,SODDY DAISY,35.27646,-85.155689,ACC1-MVC Injuries,,1612284015.0,2021-02-02,16,
2021-02-02 16:38:01,2021-02-02 17:22:10.293,2090 Highway 27 Nb,SODDY DAISY,35.27646,-85.155689,ACC1-MVC Injuries,,1612283881.0,2021-02-02,16,
2021-02-02 16:37:31,2021-02-02 16:44:31.000,2060-2128 Highway 27 Nb,SODDY DAISY,35.27613,-85.15582,ACC3-MVC Unknown Injuries,,1612283851.0,2021-02-02,16,
2021-02-02 16:37:22,2021-02-02 16:44:48.000,2100 HIGHWAY 27 NB,SODDY DAISY,35.27795,-85.154924,ACC3-MVC Unknown Injuries,,1612283842.0,2021-02-02,16,
2021-02-02 16:30:01,2021-02-02 16:54:04.070,18060 Interstate 24 Wb,CHATTANOOGA,35.018522,-85.287156,ACC2-MVC No Injuries,,1612283401.0,2021-02-02,16,
2021-02-02 16:16:04,2021-02-02 17:41:28.353,Northgate Mall Dr / Hixson Pike,CHATTANOOGA,35.133264,-85.242413,ACC2-MVC No Injuries,,1612282564.0,2021-02-02,16,
2021-02-02 16:11:56,2021-02-02 17:06:01.483,3301-3449 Wilcox Blvd,CHATTANOOGA,35.04812,-85.24043,ACC2-MVC No Injuries,,1612282316.0,2021-02-02,16,
2021-02-02 16:08:12,2021-02-02 16:26:22.810,4856 Highway 58,CHATTANOOGA,35.09258,-85.18073,ACC1-MVC Injuries,,1612282092.0,2021-02-02,16,
2021-02-02 16:08:11,2021-02-02 16:34:52.183,4856 Highway 58,CHATTANOOGA,35.09258,-85.18073,ACC1-MVC Injuries,,1612282091.0,2021-02-02,16,
2021-02-02 16:05:59,2021-02-02 17:06:20.647,4856 Highway 58,CHATTANOOGA,35.09258,-85.18073,ACC1-MVC Injuries,,1612281959.0,2021-02-02,16,
2021-02-02 16:05:51,2021-02-02 16:46:28.753,W Bell Ave / N Market St,CHATTANOOGA,35.068284,-85.308932,ACC2-MVC No Injuries,,1612281951.0,2021-02-02,16,
2021-02-02 16:05:49,2021-02-02 16:08:55.237,4917 Highway 58,CHATTANOOGA,35.093489,-85.181456,ACC3-MVC Unknown Injuries,,1612281949.0,2021-02-02,16,
2021-02-02 16:02:40,2021-02-02 17:39:06.493,6311 Dayton Blvd,CHATTANOOGA,35.177101,-85.251392,ACC2-MVC No Injuries,,1612281760.0,2021-02-02,16,
2021-02-02 15:59:21,2021-02-02 16:34:37.377,Gunbarrel Rd / Ziegler Rd,CHATTANOOGA,35.020185,-85.160978,ACC2-MVC No Injuries,,1612281561.0,2021-02-02,15,
2021-02-02 15:55:33,2021-02-02 16:26:47.473,3000 Dodds Ave,CHATTANOOGA,35.006833,-85.278364,ACC2-MVC No Injuries,,1612281333.0,2021-02-02,15,
2021-02-02 15:55:20,2021-02-02 17:12:12.080,17540 - 17819 Interstate 24 Eb,CHATTANOOGA,35.028245,-85.360307,ACC4-MVC Entrapment,,1612281320.0,2021-02-02,15,
2021-02-02 15:55:20,2021-02-02 15:56:15.427,17540 - 17819 Interstate 24 Eb,CHATTANOOGA,35.028245,-85.360307,ACC4-MVC Entrapment,,1612281320.0,2021-02-02,15,
2021-02-02 15:55:16,2021-02-02 16:03:37.000,17540-17819 Interstate 24 Eb,CHATTANOOGA,35.019978,-85.328056,ACC1-MVC Injuries,,1612281316.0,2021-02-02,15,
2021-02-02 15:55:15,2021-02-02 15:55:58.277,17540-17819 Interstate 24 Eb,CHATTANOOGA,35.019978,-85.328056,ACC1-MVC Injuries,,1612281315.0,2021-02-02,15,
2021-02-02 15:55:06,2021-02-02 16:03:28.000,17540 - 17819 Interstate 24 Eb,CHATTANOOGA,35.028245,-85.360307,ACC1-MVC Injuries,,1612281306.0,2021-02-02,15,
2021-02-02 15:55:06,2021-02-02 18:35:50.660,17710 INTERSTATE 24 EB,CHATTANOOGA,35.019024,-85.334539,ACC1-MVC Injuries,,1612281306.0,2021-02-02,15,
2021-02-02 15:54:49,2021-02-02 18:56:51.127,17710 INTERSTATE 24 EB,CHATTANOOGA,35.019024,-85.334539,ACC1-MVC Injuries,,1612281289.0,2021-02-02,15,
2021-02-02 15:54:42,2021-02-02 15:55:08.000,17540 - 17819 Interstate 24 Eb,CHATTANOOGA,35.028245,-85.360307,ACC1-MVC Injuries,,1612281282.0,2021-02-02,15,
2021-02-02 15:54:26,2021-02-02 15:59:32.000,17540 - 17819 Interstate 24 Eb,CHATTANOOGA,35.028245,-85.360307,ACC4-MVC Entrapment,,1612281266.0,2021-02-02,15,
2021-02-02 15:51:54,2021-02-02 16:03:44.367,18100 Interstate 24 Eb,CHATTANOOGA,35.01644,-85.280517,ACC1-MVC Injuries,,1612281114.0,2021-02-02,15,
2021-02-02 15:51:54,2021-02-02 16:00:43.653,18100 Interstate 24 Eb,CHATTANOOGA,35.01644,-85.280517,ACC1-MVC Injuries,,1612281114.0,2021-02-02,15,
2021-02-02 15:44:51,2021-02-02 16:29:53.197,18100 Interstate 24 Eb,CHATTANOOGA,35.01644,-85.280517,ACC1-MVC Injuries,,1612280691.0,2021-02-02,15,
2021-02-02 15:35:55,2021-02-02 15:51:17.133,5777-5799 Highway 153,CHATTANOOGA,35.15801,-85.24867,ACC1-MVC Injuries,,1612280155.0,2021-02-02,15,
2021-02-02 15:35:55,2021-02-02 16:36:23.893,5777-5799 Highway 153,CHATTANOOGA,35.15801,-85.24867,ACC1-MVC Injuries,,1612280155.0,2021-02-02,15,
2021-02-02 15:35:06,2021-02-02 16:46:09.887,5777-5799 Highway 153,CHATTANOOGA,35.15801,-85.24867,ACC1-MVC Injuries,,1612280106.0,2021-02-02,15,
2021-02-02 15:27:06,2021-02-02 16:38:40.363,MARKET ST / W 13TH ST,CHATTANOOGA,35.039622,-85.307586,ACCDEL-MVC Delayed,,1612279626.0,2021-02-02,15,
2021-02-02 15:16:23,2021-02-02 16:11:21.000,1950 CUMMINGS HWY,CHATTANOOGA,35.015503,-85.330927,ACC2-MVC No Injuries,,1612278983.0,2021-02-02,15,
2021-02-02 14:54:25,2021-02-02 15:49:26.000,E Main St / Passenger St,CHATTANOOGA,35.035031,-85.304416,ACCDEL-MVC Delayed,,1612277665.0,2021-02-02,14,
2021-02-02 14:41:37,2021-02-02 15:25:24.457,5300 RINGGOLD RD,EAST RIDGE,34.994961,-85.235357,ACC1-MVC Injuries,,1612276897.0,2021-02-02,14,
2021-02-02 14:41:37,2021-02-02 14:46:44.000,5300-5314 Ringgold Rd,EAST RIDGE,34.99494,-85.23433,ACC1-MVC Injuries,,1612276897.0,2021-02-02,14,
2021-02-02 14:41:13,2021-02-02 17:49:50.533,5300 RINGGOLD RD,EAST RIDGE,34.994961,-85.235357,ACC1-MVC Injuries,,1612276873.0,2021-02-02,14,
2021-02-02 14:40:51,2021-02-02 15:53:15.753,5235 Highway 153,CHATTANOOGA,35.12538,-85.241588,ACC2-MVC No Injuries,,1612276851.0,2021-02-02,14,
2021-02-02 14:36:29,2021-02-02 15:01:59.627,865 E 3RD ST,CHATTANOOGA,35.050422,-85.294787,ACC2-MVC No Injuries,,1612276589.0,2021-02-02,14,
2021-02-02 14:30:46,2021-02-02 14:33:43.250,1651 Gunbarrel Rd,CHATTANOOGA,35.0221,-85.16259,ACC2-MVC No Injuries,,1612276246.0,2021-02-02,14,
2021-02-02 14:30:44,2021-02-02 15:40:59.000,1651 Gunbarrel Rd,CHATTANOOGA,35.02158,-85.163177,ACC2-MVC No Injuries,,1612276244.0,2021-02-02,14,
2021-02-02 14:26:20,2021-02-02 15:33:59.560,1400-1499 S HOLTZCLAW AVE,CHATTANOOGA,35.029801,-85.287695,ACCDEL-MVC Delayed,,1612275980.0,2021-02-02,14,
2021-02-02 14:15:46,2021-02-02 15:16:58.960,DODDS AVE / E 18TH ST,CHATTANOOGA,35.019182,-85.271574,ACC2-MVC No Injuries,,1612275346.0,2021-02-02,14,
2021-02-02 13:50:52,2021-02-02 15:30:01.057,E 8th St / Douglas St,CHATTANOOGA,35.045119,-85.302135,ACC2-MVC No Injuries,,1612273852.0,2021-02-02,13,
2021-02-02 13:30:26,2021-02-02 13:41:11.380,1181-1329 Interstate 75 Sb,CHATTANOOGA,35.1012,-85.05415,ACC1-MVC Injuries,,1612272626.0,2021-02-02,13,
2021-02-02 13:30:25,2021-02-02 13:58:02.537,1181-1329 Interstate 75 Sb,CHATTANOOGA,35.1012,-85.05415,ACC1-MVC Injuries,,1612272625.0,2021-02-02,13,
2021-02-02 13:30:25,2021-02-02 14:18:29.327,1181-1329 Interstate 75 Sb,CHATTANOOGA,35.1012,-85.05415,ACC1-MVC Injuries,,1612272625.0,2021-02-02,13,
2021-02-02 13:29:47,2021-02-02 15:39:56.643,1180-1329 INTERSTATE 75 SB,CHATTANOOGA,35.101035,-85.053817,ACC1-MVC Injuries,,1612272587.0,2021-02-02,13,
2021-02-02 12:57:00,2021-02-02 14:14:31.430,6300 LEE HWY,CHATTANOOGA,35.031699,-85.183432,ACC2-MVC No Injuries,,1612270620.0,2021-02-02,12,
2021-02-02 12:04:10,2021-02-02 12:37:54.477,600 Market St,CHATTANOOGA,35.049536,-85.309151,ACC2-MVC No Injuries,,1612267450.0,2021-02-02,12,
2021-02-02 11:43:48,2021-02-02 12:02:57.763,2025 Broad St,CHATTANOOGA,35.032807,-85.314228,ACC1-MVC Injuries,,1612266228.0,2021-02-02,11,
2021-02-02 11:43:48,2021-02-02 12:16:29.937,2025 Broad St,CHATTANOOGA,35.032807,-85.314228,ACC1-MVC Injuries,,1612266228.0,2021-02-02,11,
2021-02-02 11:43:35,2021-02-02 12:31:18.363,2025 Broad St,CHATTANOOGA,35.032807,-85.314228,ACC1-MVC Injuries,,1612266215.0,2021-02-02,11,
2021-02-02 10:43:24,2021-02-02 11:27:31.753,1100 Interstate 75 Sb,CHATTANOOGA,35.082937,-85.078216,ACCDEL-MVC Delayed,,1612262604.0,2021-02-02,10,
2021-02-02 10:38:00,2021-02-02 11:19:24.627,Wilcox Blvd / Shallowford Rd,CHATTANOOGA,35.042901,-85.222382,ACC2-MVC No Injuries,,1612262280.0,2021-02-02,10,
2021-02-02 10:34:48,2021-02-02 11:06:21.657,4138 HIXSON PIKE,CHATTANOOGA,35.114572,-85.252004,ACC2-MVC No Injuries,,1612262088.0,2021-02-02,10,
2021-02-02 10:22:55,2021-02-02 10:27:39.337,5830 Brainerd Rd,CHATTANOOGA,35.01212,-85.21164,ACC2-MVC No Injuries,,1612261375.0,2021-02-02,10,
2021-02-02 10:18:41,2021-02-02 10:53:10.710,5830 Brainerd Rd,CHATTANOOGA,35.012306,-85.212241,ACC2-MVC No Injuries,,1612261121.0,2021-02-02,10,
2021-02-02 10:17:48,2021-02-02 10:21:20.000,6101 Shallowford Rd,CHATTANOOGA,35.05357,-85.181765,ACC2-MVC No Injuries,,1612261068.0,2021-02-02,10,
2021-02-02 10:02:16,2021-02-02 10:23:45.600,1-9 Exit 1b On Ramp Nb,EAST RIDGE,34.99108,-85.203899,ACC3-MVC Unknown Injuries,,1612260136.0,2021-02-02,10,
2021-02-02 09:57:29,2021-02-02 13:17:43.597,1-9 Exit 1b On Ramp Nb,EAST RIDGE,34.99108,-85.203899,ACC2-MVC No Injuries,,1612259849.0,2021-02-02,09,
2021-02-02 09:26:13,2021-02-02 09:29:47.763,Highway 153 / Northpoint Blvd,CHATTANOOGA,35.138246,-85.247724,ACC1-MVC Injuries,,1612257973.0,2021-02-02,09,
2021-02-02 09:26:13,2021-02-02 09:29:04.060,Highway 153 / Northpoint Blvd,CHATTANOOGA,35.138246,-85.247724,ACC1-MVC Injuries,,1612257973.0,2021-02-02,09,
2021-02-02 09:25:35,2021-02-02 10:30:18.143,5400 HIGHWAY 153,CHATTANOOGA,35.136575,-85.246361,ACC2-MVC No Injuries,,1612257935.0,2021-02-02,09,
2021-02-02 07:46:00,2021-02-02 08:12:07.563,112 PALMETTO ST,CHATTANOOGA,35.049733,-85.29112,ACC1-MVC Injuries,,1612251960.0,2021-02-02,07,
2021-02-02 07:46:00,2021-02-02 08:35:06.800,Palmetto St / Hampton St,CHATTANOOGA,35.04976,-85.290946,ACC1-MVC Injuries,,1612251960.0,2021-02-02,07,
2021-02-02 07:45:46,2021-02-02 09:41:44.757,100 PALMETTO ST,CHATTANOOGA,35.04976,-85.290946,ACC1-MVC Injuries,,1612251946.0,2021-02-02,07,
2021-02-02 07:33:40,2021-02-02 07:34:20.483,8230 - 8405 Highway 58,HAMILTON COUNTY,35.161159,-85.091641,ACC1-MVC Injuries,,1612251220.0,2021-02-02,07,
2021-02-02 07:33:40,2021-02-02 07:34:10.000,8230 - 8405 Highway 58,HAMILTON COUNTY,35.161159,-85.091641,ACC1-MVC Injuries,,1612251220.0,2021-02-02,07,
2021-02-02 07:32:40,2021-02-02 07:52:37.447,8300 HIGHWAY 58,HAMILTON COUNTY,35.162038,-85.089535,ACC2-MVC No Injuries,,1612251160.0,2021-02-02,07,
2021-02-02 07:09:02,2021-02-02 09:17:18.173,2500 Rossville Blvd,CHATTANOOGA,35.020202,-85.293614,ACC2-MVC No Injuries,,1612249742.0,2021-02-02,07,
2021-02-02 06:31:22,2021-02-02 07:18:29.647,4303 14th Ave,CHATTANOOGA,34.991485,-85.282831,ACC2-MVC No Injuries,,1612247482.0,2021-02-02,06,
2021-02-02 05:51:36,2021-02-02 05:52:34.000,1 - 9 Exit Mccallie Ave On Ramp Wb,CHATTANOOGA,35.031869,-85.263812,ACC4-MVC Entrapment,,1612245096.0,2021-02-02,05,
2021-02-02 05:51:36,2021-02-02 06:35:03.890,1 - 9 Exit Mccallie Ave On Ramp Wb,CHATTANOOGA,35.031869,-85.263812,ACC1-MVC Injuries,,1612245096.0,2021-02-02,05,
2021-02-02 05:49:48,2021-02-02 06:12:44.000,1 - 9 Exit Mccallie Ave On Ramp Wb,CHATTANOOGA,35.031869,-85.263812,ACC4-MVC Entrapment,,1612244988.0,2021-02-02,05,
2021-02-02 05:49:47,2021-02-02 05:52:13.000,1 - 9 Exit Mccallie Ave On Ramp Wb,CHATTANOOGA,35.031869,-85.263812,ACC1-MVC Injuries,,1612244987.0,2021-02-02,05,
2021-02-02 05:49:11,2021-02-02 08:47:46.327,101 GLENWOOD DR,CHATTANOOGA,35.032474,-85.263942,ACC1-MVC Injuries,,1612244951.0,2021-02-02,05,
2021-02-02 01:30:35,2021-02-02 01:46:10.000,511 Manufacturers Rd,CHATTANOOGA,35.063571,-85.316419,ACC2-MVC No Injuries,,1612229435.0,2021-02-02,01,
2021-02-02 00:14:26,2021-02-02 00:23:40.000,18421-18459 Interstate 24 Wb,CHATTANOOGA,35.00649,-85.23135,ACC2-MVC No Injuries,,1612224866.0,2021-02-02,00,
2021-02-03 22:38:16,2021-02-03 23:19:40.267,600 Manufacturers Rd,CHATTANOOGA,35.06112,-85.3182,ACC2-MVC No Injuries,,1612391896.0,2021-02-03,22,
2021-02-03 22:07:59,2021-02-03 22:37:30.520,9607 Barbee Rd,SODDY DAISY,35.234527,-85.1579,ACC2-MVC No Injuries,,1612390079.0,2021-02-03,22,
2021-02-03 21:54:25,2021-02-03 23:26:55.427,2801 12th Ave,CHATTANOOGA,35.008626,-85.276315,ACC2-MVC No Injuries,,1612389265.0,2021-02-03,21,
2021-02-03 21:49:12,2021-02-03 23:04:11.403,Shallowford Rd / Lifestyle Way,CHATTANOOGA,35.040925,-85.151563,ACC2-MVC No Injuries,,1612388952.0,2021-02-03,21,
2021-02-03 21:04:16,2021-02-03 22:10:40.957,4110 SHALLOWFORD RD,CHATTANOOGA,35.042164,-85.220198,ACC2-MVC No Injuries,,1612386256.0,2021-02-03,21,
2021-02-03 20:46:02,2021-02-03 20:48:21.817,4000-4118 Shallowford Rd,CHATTANOOGA,35.04281,-85.22067,ACC2-MVC No Injuries,,1612385162.0,2021-02-03,20,
2021-02-03 18:47:46,2021-02-03 19:22:20.143,101-137 HARRISON LN,SODDY DAISY,35.23699,-85.19874,ACC2-MVC No Injuries,,1612378066.0,2021-02-03,18,
2021-02-03 18:46:07,2021-02-03 19:16:08.923,Shallowford Rd / Jenkins Rd,CHATTANOOGA,35.034255,-85.133464,ACC2-MVC No Injuries,,1612377967.0,2021-02-03,18,
2021-02-03 18:29:11,2021-02-03 18:36:16.480,17540 - 17819 INTERSTATE 24 EB,CHATTANOOGA,35.028245,-85.360307,ACC1-MVC Injuries,,1612376951.0,2021-02-03,18,
2021-02-03 18:29:10,2021-02-03 18:29:23.000,17540 - 17819 INTERSTATE 24 EB,CHATTANOOGA,35.028245,-85.360307,ACC1-MVC Injuries,,1612376950.0,2021-02-03,18,
2021-02-03 18:27:53,2021-02-03 18:41:28.930,17800 INTERSTATE 24 EB,CHATTANOOGA,35.02629,-85.323702,ACC1-MVC Injuries,,1612376873.0,2021-02-03,18,
2021-02-03 18:27:52,2021-02-03 18:33:50.860,17800 INTERSTATE 24 EB,CHATTANOOGA,35.02629,-85.323702,ACC1-MVC Injuries,,1612376872.0,2021-02-03,18,
2021-02-03 18:27:36,2021-02-03 18:30:29.490,17540 - 17819 INTERSTATE 24 EB,CHATTANOOGA,35.028245,-85.360307,ACC1-MVC Injuries,,1612376856.0,2021-02-03,18,
2021-02-03 18:27:26,2021-02-03 19:23:00.183,17540-17818 Interstate 24 Eb,CHATTANOOGA,35.02583,-85.32385,ACC1-MVC Injuries,,1612376846.0,2021-02-03,18,
2021-02-03 17:57:35,2021-02-03 18:13:45.563,2200 Hamilton Place Blvd,CHATTANOOGA,35.037712,-85.156744,ACC2-MVC No Injuries,,1612375055.0,2021-02-03,17,
2021-02-03 17:39:02,2021-02-03 17:56:54.473,8601 Hixson Pike,LAKESITE,35.201085,-85.15865,ACC2-MVC No Injuries,,1612373942.0,2021-02-03,17,
2021-02-03 17:34:43,2021-02-03 17:45:38.293,4025 Oakwood Dr,CHATTANOOGA,35.089428,-85.190258,ACC1-MVC Injuries,,1612373683.0,2021-02-03,17,
2021-02-03 17:34:43,2021-02-03 17:48:40.740,4025 Oakwood Dr,CHATTANOOGA,35.089428,-85.190258,ACC1-MVC Injuries,,1612373683.0,2021-02-03,17,
2021-02-03 17:34:02,2021-02-03 17:58:02.243,4025 Oakwood Dr,CHATTANOOGA,35.089428,-85.190258,ACC1-MVC Injuries,,1612373642.0,2021-02-03,17,
2021-02-03 17:24:28,2021-02-03 18:17:01.410,4852 - 4919 Highway 58,CHATTANOOGA,35.092366,-85.182091,ACC2-MVC No Injuries,,1612373068.0,2021-02-03,17,
2021-02-03 17:24:25,2021-02-03 17:54:45.020,6009 OOLTEWAH GEORGETOWN RD,CHATTANOOGA,35.083394,-85.058605,ACC2-MVC No Injuries,,1612373065.0,2021-02-03,17,
2021-02-03 17:18:40,2021-02-03 17:43:27.417,18280 INTERSTATE 24 EB,EAST RIDGE,35.017632,-85.256492,ACC2-MVC No Injuries,,1612372720.0,2021-02-03,17,
2021-02-03 17:17:30,2021-02-03 17:32:03.477,2500-2599 Wilcox Blvd,CHATTANOOGA,35.051738,-85.254512,ACC3-MVC Unknown Injuries,,1612372650.0,2021-02-03,17,
2021-02-03 16:28:15,2021-02-03 17:10:01.030,200 N MARKET ST,CHATTANOOGA,35.063616,-85.308691,ACC2-MVC No Injuries,,1612369695.0,2021-02-03,16,
2021-02-03 16:00:27,2021-02-03 16:41:07.123,7530 BONNY OAKS DR,CHATTANOOGA,35.060011,-85.132608,ACC2-MVC No Injuries,,1612368027.0,2021-02-03,16,
2021-02-03 15:59:51,2021-02-03 16:03:10.770,5706 - 5902 Brainerd Rd,CHATTANOOGA,35.011704,-85.213958,ACC2-MVC No Injuries,,1612367991.0,2021-02-03,15,
2021-02-03 15:57:09,2021-02-03 16:29:33.417,5798 Brainerd Rd,CHATTANOOGA,35.012613,-85.212484,ACC2-MVC No Injuries,,1612367829.0,2021-02-03,15,
2021-02-03 15:50:29,2021-02-03 16:16:00.393,1500 Chestnut St,CHATTANOOGA,35.037999,-85.313151,ACC2-MVC No Injuries,,1612367429.0,2021-02-03,15,
2021-02-03 15:40:10,2021-02-03 16:27:34.813,Highway 153 / Gadd Rd,CHATTANOOGA,35.14182,-85.248735,ACC2-MVC No Injuries,,1612366810.0,2021-02-03,15,
2021-02-03 15:25:42,2021-02-03 16:12:19.897,3470 N HAWTHORNE ST,CHATTANOOGA,35.080157,-85.251337,ACC2-MVC No Injuries,,1612365942.0,2021-02-03,15,
2021-02-03 14:56:30,2021-02-03 15:27:26.427,1728 Bailey Ave,CHATTANOOGA,35.034097,-85.278313,ACC2-MVC No Injuries,,1612364190.0,2021-02-03,14,
2021-02-03 14:31:37,2021-02-03 14:33:43.500,7510 Sawyer Pike,HAMILTON COUNTY,35.211668,-85.282643,ACC1-MVC Injuries,,1612362697.0,2021-02-03,14,
2021-02-03 14:31:37,2021-02-03 14:31:49.000,7510 Sawyer Pike,HAMILTON COUNTY,35.211668,-85.282643,ACC1-MVC Injuries,,1612362697.0,2021-02-03,14,
2021-02-03 14:30:00,2021-02-03 14:30:43.603,7510 Sawyer Pike,HAMILTON COUNTY,35.211668,-85.282643,ACC4-MVC Entrapment,,1612362600.0,2021-02-03,14,
2021-02-03 14:29:59,2021-02-03 14:30:13.000,7510 Sawyer Pike,HAMILTON COUNTY,35.211668,-85.282643,ACC4-MVC Entrapment,,1612362599.0,2021-02-03,14,
2021-02-03 14:28:58,2021-02-03 15:45:13.660,7525 SAWYER PIKE,HAMILTON COUNTY,35.215013,-85.286935,ACC4-MVC Entrapment,,1612362538.0,2021-02-03,14,
2021-02-03 14:28:57,2021-02-03 16:09:28.830,7525 SAWYER PIKE,HAMILTON COUNTY,35.215013,-85.286935,ACC4-MVC Entrapment,,1612362537.0,2021-02-03,14,
2021-02-03 14:28:24,2021-02-03 15:46:50.253,7525 SAWYER PIKE,HAMILTON COUNTY,35.215013,-85.286935,ACC1-MVC Injuries,,1612362504.0,2021-02-03,14,
2021-02-03 14:25:58,2021-02-03 15:13:57.647,1800 S Greenwood Ave,CHATTANOOGA,35.025337,-85.288504,ACC2-MVC No Injuries,,1612362358.0,2021-02-03,14,
2021-02-03 14:11:41,2021-02-03 14:43:30.377,18150 - 18249 Interstate 24 Wb,CHATTANOOGA,35.014566,-85.27282,ACC2-MVC No Injuries,,1612361501.0,2021-02-03,14,
2021-02-03 14:07:50,2021-02-03 14:34:28.670,1701 SUCK CREEK RD,CHATTANOOGA,35.105372,-85.359663,ACC1-MVC Injuries,,1612361270.0,2021-02-03,14,
2021-02-03 14:07:49,2021-02-03 14:26:09.957,1701 SUCK CREEK RD,CHATTANOOGA,35.105372,-85.359663,ACC1-MVC Injuries,,1612361269.0,2021-02-03,14,
2021-02-03 14:07:29,2021-02-03 15:57:01.050,1701 SUCK CREEK RD,CHATTANOOGA,35.105372,-85.359663,ACC1-MVC Injuries,,1612361249.0,2021-02-03,14,
2021-02-03 14:06:30,2021-02-03 14:39:55.710,4850 Brainerd Rd,CHATTANOOGA,35.012748,-85.228911,ACC2-MVC No Injuries,,1612361190.0,2021-02-03,14,
2021-02-03 14:01:14,2021-02-03 14:50:00.997,E 4th St / Market St,CHATTANOOGA,35.052314,-85.309633,ACC2-MVC No Injuries,,1612360874.0,2021-02-03,14,
2021-02-03 13:52:30,2021-02-03 14:26:04.737,4330 RINGGOLD RD,EAST RIDGE,34.995679,-85.238849,ACC2-MVC No Injuries,,1612360350.0,2021-02-03,13,
2021-02-03 13:14:47,2021-02-03 14:06:40.507,900 MAYFLOWER RD,HAMILTON COUNTY,35.369706,-85.0983,ACC2-MVC No Injuries,,1612358087.0,2021-02-03,13,
2021-02-03 13:13:30,2021-02-03 13:58:11.490,Dayton Pike / Posey Hollow Rd,SODDY DAISY,35.299032,-85.147468,ACC1-MVC Injuries,,1612358010.0,2021-02-03,13,
2021-02-03 13:13:29,2021-02-03 13:32:20.087,Dayton Pike / Posey Hollow Rd,SODDY DAISY,35.299032,-85.147468,ACC1-MVC Injuries,,1612358009.0,2021-02-03,13,
2021-02-03 13:13:02,2021-02-03 13:57:49.923,Dayton Pike / Posey Hollow Rd,SODDY DAISY,35.299032,-85.147468,ACC1-MVC Injuries,,1612357982.0,2021-02-03,13,
2021-02-03 12:32:30,2021-02-03 13:20:30.590,6050 Shallowford Rd,CHATTANOOGA,35.052355,-85.186172,ACC2-MVC No Injuries,,1612355550.0,2021-02-03,12,
2021-02-03 11:24:01,2021-02-03 12:00:41.233,3417 Clio Ave,CHATTANOOGA,35.004853,-85.291864,ACC1-MVC Injuries,,1612351441.0,2021-02-03,11,
2021-02-03 11:24:00,2021-02-03 13:02:54.823,3417 Clio Ave,CHATTANOOGA,35.004853,-85.291864,ACC1-MVC Injuries,,1612351440.0,2021-02-03,11,
2021-02-03 11:15:39,2021-02-03 12:25:07.180,17941-18029 Interstate 24 Wb,CHATTANOOGA,35.02352,-85.29922,ACC2-MVC No Injuries,,1612350939.0,2021-02-03,11,
2021-02-03 11:15:29,2021-02-03 11:21:45.000,18000 INTERSTATE 24 WB,CHATTANOOGA,35.02156,-85.297411,ACC2-MVC No Injuries,,1612350929.0,2021-02-03,11,
2021-02-03 11:13:42,2021-02-03 12:42:13.173,1400 Market St,CHATTANOOGA,35.037227,-85.306833,ACCDEL-MVC Delayed,,1612350822.0,2021-02-03,11,
2021-02-03 11:07:39,2021-02-03 11:33:11.820,3548 Cottonwood Ln,CHATTANOOGA,35.051936,-85.231664,ACC2-MVC No Injuries,,1612350459.0,2021-02-03,11,
2021-02-03 10:58:09,2021-02-03 15:27:22.413,7710 E Brainerd Rd,CHATTANOOGA,35.008704,-85.156033,ACCDEL-MVC Delayed,,1612349889.0,2021-02-03,10,
2021-02-03 10:37:47,2021-02-03 11:17:57.803,3952 Brainerd Rd,CHATTANOOGA,35.019403,-85.240418,ACC2-MVC No Injuries,,1612348667.0,2021-02-03,10,
2021-02-03 09:18:22,2021-02-03 10:06:14.207,4309 Bonny Oaks Dr,CHATTANOOGA,35.079873,-85.207579,ACC2-MVC No Injuries,,1612343902.0,2021-02-03,09,
2021-02-03 09:12:30,2021-02-03 10:13:20.613,Bailey Ave / S Holtzclaw Ave,CHATTANOOGA,35.036483,-85.284243,ACC2-MVC No Injuries,,1612343550.0,2021-02-03,09,
2021-02-03 08:26:51,2021-02-03 10:07:19.367,3300 Taft Hwy,WALDEN,35.168996,-85.322409,ACC1-MVC Injuries,,1612340811.0,2021-02-03,08,
2021-02-03 08:26:51,2021-02-03 09:40:24.847,3300 Taft Hwy,WALDEN,35.168996,-85.322409,ACC1-MVC Injuries,,1612340811.0,2021-02-03,08,
2021-02-03 08:26:45,2021-02-03 10:28:03.730,3300 Taft Hwy,WALDEN,35.168996,-85.322409,ACC1-MVC Injuries,,1612340805.0,2021-02-03,08,
2021-02-03 08:26:27,2021-02-03 08:58:15.313,350 Interstate 75 Nb,CHATTANOOGA,35.017611,-85.178462,ACC2-MVC No Injuries,,1612340787.0,2021-02-03,08,
2021-02-03 08:22:42,2021-02-03 10:10:11.417,500 Interstate 75 Nb,CHATTANOOGA,35.035572,-85.163223,ACC2-MVC No Injuries,,1612340562.0,2021-02-03,08,
2021-02-03 08:14:03,2021-02-03 09:10:54.873,700-748 Morrison Springs Rd,CHATTANOOGA,35.12589,-85.30879,ACC2-MVC No Injuries,,1612340043.0,2021-02-03,08,
2021-02-03 08:13:36,2021-02-03 08:16:37.880,Morrison Springs Rd / Mountain Creek Rd,CHATTANOOGA,35.126626,-85.310272,ACC2-MVC No Injuries,,1612340016.0,2021-02-03,08,
2021-02-03 08:00:55,2021-02-03 08:13:17.107,80 Interstate 75 Nb,EAST RIDGE,34.99553,-85.207454,ACC2-MVC No Injuries,,1612339255.0,2021-02-03,08,
2021-02-03 07:55:49,2021-02-03 08:03:52.000,"34째58'33.08""n / 085째11'48.81""w",,34.975855,-85.196893,ACC2-MVC No Injuries,,1612338949.0,2021-02-03,07,
2021-02-03 07:15:20,2021-02-03 08:00:57.177,Wilcox Blvd / Tunnel Blvd,CHATTANOOGA,35.047083,-85.237299,ACCDEL-MVC Delayed,,1612336520.0,2021-02-03,07,
2021-02-03 06:54:31,2021-02-03 07:48:54.607,340-799 MONTLAKE RD,HAMILTON COUNTY,35.240998,-85.234872,ACC2-MVC No Injuries,,1612335271.0,2021-02-03,06,
2021-02-03 05:06:32,2021-02-03 05:31:36.073,5700 Highway 58,CHATTANOOGA,35.110066,-85.140954,ACC2-MVC No Injuries,,1612328792.0,2021-02-03,05,
2021-02-03 00:40:16,2021-02-03 01:05:36.000,9375 Dayton Pike,SODDY DAISY,35.237273,-85.199801,ACC1-MVC Injuries,,1612312816.0,2021-02-03,00,
2021-02-03 00:40:16,2021-02-03 01:14:54.553,9375 Dayton Pike,SODDY DAISY,35.237273,-85.199801,ACC1-MVC Injuries,,1612312816.0,2021-02-03,00,
2021-02-03 00:38:58,2021-02-03 03:24:44.000,9375 Dayton Pike,SODDY DAISY,35.237273,-85.199801,ACC1-MVC Injuries,,1612312738.0,2021-02-03,00,
2021-02-04 23:07:29,2021-02-04 23:50:04.623,1021 ASHLAND TER,CHATTANOOGA,35.115641,-85.262199,ACC2-MVC No Injuries,,1612480049.0,2021-02-04,23,
2021-02-04 22:28:04,2021-02-04 22:33:12.103,Shallowford Rd / Lee Hwy,CHATTANOOGA,35.044885,-85.162464,ACC2-MVC No Injuries,,1612477684.0,2021-02-04,22,
2021-02-04 22:25:30,2021-02-05 00:12:36.237,7001-7099 Lee Hwy,CHATTANOOGA,35.04509,-85.16213,ACC2-MVC No Injuries,,1612477530.0,2021-02-04,22,
2021-02-04 22:07:22,2021-02-04 23:08:48.187,Riverside Dr / Wilcox Blvd,CHATTANOOGA,35.05854,-85.275747,ACC2-MVC No Injuries,,1612476442.0,2021-02-04,22,
2021-02-04 21:04:37,2021-02-04 21:25:51.520,1415 Gadd Rd,CHATTANOOGA,35.1433,-85.23761,ACC2-MVC No Injuries,,1612472677.0,2021-02-04,21,
2021-02-04 20:42:55,2021-02-04 21:47:01.783,2007 E 32nd St,CHATTANOOGA,35.007067,-85.287223,ACC2-MVC No Injuries,,1612471375.0,2021-02-04,20,
2021-02-04 20:15:14,2021-02-04 20:50:02.420,920 HIGHWAY 27 NB,CHATTANOOGA,35.153274,-85.287376,ACC1-MVC Injuries,,1612469714.0,2021-02-04,20,
2021-02-04 20:15:14,2021-02-04 21:26:02.450,770-919 Highway 27 Nb,CHATTANOOGA,35.152113,-85.287952,ACC1-MVC Injuries,,1612469714.0,2021-02-04,20,
2021-02-04 20:14:32,2021-02-04 20:17:10.820,920 HIGHWAY 27 NB,CHATTANOOGA,35.153274,-85.287376,ACC1-MVC Injuries,,1612469672.0,2021-02-04,20,
2021-02-04 20:11:54,2021-02-04 20:12:51.000,920-988 Highway 27 Nb,CHATTANOOGA,35.160319,-85.284272,ACC3-MVC Unknown Injuries,,1612469514.0,2021-02-04,20,
2021-02-04 20:10:12,2021-02-04 20:17:00.387,1 - 9 Exit Mountain Creek Rd On Ramp Nb,CHATTANOOGA,35.157666,-85.284697,ACC3-MVC Unknown Injuries,,1612469412.0,2021-02-04,20,
2021-02-04 20:07:49,2021-02-04 21:01:05.427,7100 SHALLOWFORD RD,CHATTANOOGA,35.042997,-85.157294,ACC2-MVC No Injuries,,1612469269.0,2021-02-04,20,
2021-02-04 20:04:53,2021-02-04 20:42:15.013,18310 INTERSTATE 24 EB,CHATTANOOGA,35.014375,-85.252128,ACC2-MVC No Injuries,,1612469093.0,2021-02-04,20,
2021-02-04 19:53:45,2021-02-04 20:08:37.000,8981 Dayton Pike,SODDY DAISY,35.228463,-85.212456,ACCDEL-MVC Delayed,,1612468425.0,2021-02-04,19,
2021-02-04 19:37:46,2021-02-04 19:55:32.287,130 INTERSTATE 75 NB,CHATTANOOGA,35.001443,-85.210799,ACC2-MVC No Injuries,,1612467466.0,2021-02-04,19,
2021-02-04 19:29:56,2021-02-04 21:32:24.903,1743 DAYTON BLVD,RED BANK,35.083218,-85.317996,ACC2-MVC No Injuries,,1612466996.0,2021-02-04,19,
2021-02-04 19:25:50,2021-02-04 19:32:43.690,1720 HIGHWAY 27 NB,SODDY DAISY,35.236,-85.194825,ACC1-MVC Injuries,,1612466750.0,2021-02-04,19,
2021-02-04 19:25:50,2021-02-04 20:07:33.987,1720 HIGHWAY 27 NB,SODDY DAISY,35.236,-85.194825,ACC1-MVC Injuries,,1612466750.0,2021-02-04,19,
2021-02-04 19:21:03,2021-02-04 20:07:16.263,1720 HIGHWAY 27 NB,SODDY DAISY,35.236,-85.194825,ACC1-MVC Injuries,,1612466463.0,2021-02-04,19,
2021-02-04 19:20:18,2021-02-04 19:31:48.157,1500 Highway 27 Nb,CHATTANOOGA,35.211428,-85.219225,ACC3-MVC Unknown Injuries,,1612466418.0,2021-02-04,19,
2021-02-04 19:18:11,2021-02-04 20:13:18.043,2100 DODDS AVE,CHATTANOOGA,35.016613,-85.272748,ACC2-MVC No Injuries,,1612466291.0,2021-02-04,19,
2021-02-04 19:13:01,2021-02-04 19:48:24.533,7300 SHALLOWFORD RD,CHATTANOOGA,35.041303,-85.153824,ACC2-MVC No Injuries,,1612465981.0,2021-02-04,19,
2021-02-04 19:02:07,2021-02-04 19:34:09.547,Highway 58 / Jersey Pike,CHATTANOOGA,35.093334,-85.179931,ACC2-MVC No Injuries,,1612465327.0,2021-02-04,19,
2021-02-04 18:30:09,2021-02-04 19:41:00.363,3798 CUMMINGS HWY,CHATTANOOGA,35.018905,-85.384217,ACC1-MVC Injuries,,1612463409.0,2021-02-04,18,
2021-02-04 18:30:08,2021-02-04 18:54:59.743,3798 CUMMINGS HWY,CHATTANOOGA,35.018905,-85.384217,ACC1-MVC Injuries,,1612463408.0,2021-02-04,18,
2021-02-04 18:28:58,2021-02-04 18:31:56.887,3801 Cummings Hwy,CHATTANOOGA,35.019695,-85.384626,ACC3-MVC Unknown Injuries,,1612463338.0,2021-02-04,18,
2021-02-04 18:28:33,2021-02-04 19:46:03.497,1-9 EXIT 174 ON RAMP WB,CHATTANOOGA,35.018755,-85.3843,ACC1-MVC Injuries,,1612463313.0,2021-02-04,18,
2021-02-04 18:23:48,2021-02-04 19:31:29.713,8000 Batters Place Rd,CHATTANOOGA,35.024124,-85.13803,ACC2-MVC No Injuries,,1612463028.0,2021-02-04,18,
2021-02-04 18:10:50,2021-02-04 21:32:25.220,6236 Stockton Dr,CHATTANOOGA,35.075231,-85.176549,ACC2-MVC No Injuries,,1612462250.0,2021-02-04,18,
2021-02-04 18:03:52,2021-02-04 18:53:29.257,9039 Lee Hwy,CHATTANOOGA,35.085697,-85.065323,ACC2-MVC No Injuries,,1612461832.0,2021-02-04,18,
2021-02-04 17:47:45,2021-02-04 18:23:24.530,Cassandra Smith Rd / Amber Forest Trl,CHATTANOOGA,35.138899,-85.209577,ACC2-MVC No Injuries,,1612460865.0,2021-02-04,17,
2021-02-04 17:42:19,2021-02-04 18:08:34.247,7200 Volkswagen Dr,CHATTANOOGA,35.070463,-85.143275,ACC2-MVC No Injuries,,1612460539.0,2021-02-04,17,
2021-02-04 17:40:27,2021-02-04 18:49:48.307,8630 OLD LEE HWY,HAMILTON COUNTY,35.080686,-85.078455,ACC2-MVC No Injuries,,1612460427.0,2021-02-04,17,
2021-02-04 17:23:28,2021-02-04 17:32:04.497,17500 Interstate 24 Wb,CHATTANOOGA,35.027029,-85.366708,ACC2-MVC No Injuries,,1612459408.0,2021-02-04,17,
2021-02-04 17:22:27,2021-02-04 17:57:58.867,17660 INTERSTATE 24 WB,CHATTANOOGA,35.023399,-85.340277,ACC2-MVC No Injuries,,1612459347.0,2021-02-04,17,
2021-02-04 17:22:10,2021-02-04 19:11:52.503,2114 GUNBARREL RD,CHATTANOOGA,35.033029,-85.153322,ACC2-MVC No Injuries,,1612459330.0,2021-02-04,17,
2021-02-04 17:20:31,2021-02-04 17:30:12.570,18251-18289 Interstate 24 Eb,EAST RIDGE,35.020465,-85.260097,ACC3-MVC Unknown Injuries,,1612459231.0,2021-02-04,17,
2021-02-04 17:19:46,2021-02-04 18:21:39.673,18300 INTERSTATE 24 EB,EAST RIDGE,35.015818,-85.254192,ACC2-MVC No Injuries,,1612459186.0,2021-02-04,17,
2021-02-04 17:05:23,2021-02-04 17:25:29.423,300 S MOORE RD,CHATTANOOGA,35.008466,-85.230391,ACC1-MVC Injuries,,1612458323.0,2021-02-04,17,
2021-02-04 17:05:22,2021-02-04 17:24:53.103,4800 - 4828 S Terrace,EAST RIDGE,35.006205,-85.231908,ACC1-MVC Injuries,,1612458322.0,2021-02-04,17,
2021-02-04 17:04:46,2021-02-04 17:10:49.537,505 S Moore Rd,EAST RIDGE,35.004892,-85.233841,ACC3-MVC Unknown Injuries,,1612458286.0,2021-02-04,17,
2021-02-04 17:04:37,2021-02-04 17:05:14.000,"35째00'21.84""n / 085째13'53.49""w",,0.0,-0.0,ACC1-MVC Injuries,,1612458277.0,2021-02-04,17,
2021-02-04 17:04:14,2021-02-04 17:17:07.483,505 S Moore Rd,EAST RIDGE,35.004892,-85.233841,ACC3-MVC Unknown Injuries,,1612458254.0,2021-02-04,17,
2021-02-04 17:03:52,2021-02-04 18:08:07.250,380 S MOORE RD,CHATTANOOGA,35.006457,-85.231766,ACC1-MVC Injuries,,1612458232.0,2021-02-04,17,
2021-02-04 16:56:24,2021-02-04 20:59:34.777,Highway 58 / Oakwood Dr,CHATTANOOGA,35.089558,-85.186894,ACC2-MVC No Injuries,,1612457784.0,2021-02-04,16,
2021-02-04 16:37:23,2021-02-04 17:25:49.277,6765 Glenbury Dr,CHATTANOOGA,35.01741,-85.182928,ACC2-MVC No Injuries,,1612456643.0,2021-02-04,16,
2021-02-04 16:15:15,2021-02-04 16:36:30.613,627 Lupton Dr,CHATTANOOGA,35.108358,-85.280485,ACC1-MVC Injuries,,1612455315.0,2021-02-04,16,
2021-02-04 16:15:14,2021-02-04 16:48:27.650,627 Lupton Dr,CHATTANOOGA,35.108358,-85.280485,ACC1-MVC Injuries,,1612455314.0,2021-02-04,16,
2021-02-04 16:08:50,2021-02-04 16:09:11.000,622 Lupton Dr,CHATTANOOGA,35.108147,-85.281053,ACC3-MVC Unknown Injuries,,1612454930.0,2021-02-04,16,
2021-02-04 16:08:45,2021-02-04 16:10:57.647,645 Lupton Dr,CHATTANOOGA,35.107965,-85.279947,ACC3-MVC Unknown Injuries,,1612454925.0,2021-02-04,16,
2021-02-04 16:08:41,2021-02-04 16:50:55.803,627 Lupton Dr,CHATTANOOGA,35.108358,-85.280485,ACC1-MVC Injuries,,1612454921.0,2021-02-04,16,
2021-02-04 16:05:30,2021-02-04 17:14:30.627,490 Greenway View Dr,CHATTANOOGA,35.008709,-85.205213,ACCDEL-MVC Delayed,,1612454730.0,2021-02-04,16,
2021-02-04 15:41:26,2021-02-04 16:09:16.803,2436 Rossville Blvd,CHATTANOOGA,35.020759,-85.294074,ACC2-MVC No Injuries,,1612453286.0,2021-02-04,15,
2021-02-04 15:38:56,2021-02-04 16:26:43.927,6200 Wimberly Dr,CHATTANOOGA,35.078897,-85.180027,ACC1-MVC Injuries,,1612453136.0,2021-02-04,15,
2021-02-04 15:35:26,2021-02-04 15:38:55.770,Hancock Rd / Wimberly Dr,CHATTANOOGA,35.079172,-85.180034,ACC3-MVC Unknown Injuries,,1612452926.0,2021-02-04,15,
2021-02-04 15:35:06,2021-02-04 18:27:12.070,6200 WIMBERLY DR,CHATTANOOGA,35.078897,-85.180027,ACC1-MVC Injuries,,1612452906.0,2021-02-04,15,
2021-02-04 15:27:25,2021-02-04 16:50:50.050,3410 Amnicola Hwy,CHATTANOOGA,35.081783,-85.26321,ACCDEL-MVC Delayed,,1612452445.0,2021-02-04,15,
2021-02-04 15:23:06,2021-02-04 15:42:45.453,2051 Hamill Rd,CHATTANOOGA,35.124471,-85.238114,ACC2-MVC No Injuries,,1612452186.0,2021-02-04,15,
2021-02-04 14:14:57,2021-02-04 14:25:40.993,Crabtree Dr / S Seminole Dr,EAST RIDGE,34.995722,-85.267828,ACC3-MVC Unknown Injuries,,1612448097.0,2021-02-04,14,
2021-02-04 14:14:24,2021-02-04 14:35:33.997,Crabtree Dr / S Seminole Dr,EAST RIDGE,34.995722,-85.267828,ACC3-MVC Unknown Injuries,,1612448064.0,2021-02-04,14,
2021-02-04 13:34:37,2021-02-04 14:10:02.977,8001 Volkswagen Dr,CHATTANOOGA,35.080045,-85.132664,ACC2-MVC No Injuries,,1612445677.0,2021-02-04,13,
2021-02-04 13:25:23,2021-02-04 14:08:22.013,2500-2598 Mccallie Ave,CHATTANOOGA,35.03242,-85.26553,ACCDEL-MVC Delayed,,1612445123.0,2021-02-04,13,
2021-02-04 12:01:54,2021-02-04 13:28:30.170,2000 HAMILL RD,CHATTANOOGA,35.123075,-85.239491,ACCDEL-MVC Delayed,,1612440114.0,2021-02-04,12,
2021-02-04 11:57:05,2021-02-04 12:40:56.947,4860 Hixson Pike,CHATTANOOGA,35.128532,-85.245334,ACC2-MVC No Injuries,,1612439825.0,2021-02-04,11,
2021-02-04 11:49:06,2021-02-04 13:01:47.587,10575 Dayton Pike,SODDY DAISY,35.26487,-85.17556,ACC2-MVC No Injuries,,1612439346.0,2021-02-04,11,
2021-02-04 11:19:18,2021-02-04 11:35:03.190,4800 - 4899 Brainerd Rd,CHATTANOOGA,35.013551,-85.229634,ACC1-MVC Injuries,,1612437558.0,2021-02-04,11,
2021-02-04 11:19:17,2021-02-04 11:38:31.970,4800 - 4899 Brainerd Rd,CHATTANOOGA,35.013551,-85.229634,ACC1-MVC Injuries,,1612437557.0,2021-02-04,11,
2021-02-04 11:17:38,2021-02-04 11:22:05.230,Brainerd Rd / N Moore Rd,CHATTANOOGA,35.012954,-85.228277,ACC2-MVC No Injuries,,1612437458.0,2021-02-04,11,
2021-02-04 11:17:09,2021-02-04 11:50:40.640,4800 - 4899 Brainerd Rd,CHATTANOOGA,35.013551,-85.229634,ACC1-MVC Injuries,,1612437429.0,2021-02-04,11,
2021-02-04 10:39:48,2021-02-04 11:02:45.353,1300 - 1399 E 12th St,CHATTANOOGA,35.030947,-85.285555,ACC2-MVC No Injuries,,1612435188.0,2021-02-04,10,
2021-02-04 10:23:45,2021-02-04 11:14:18.597,9600 APISON PIKE,COLLEGEDALE,35.058291,-85.063183,ACC2-MVC No Injuries,,1612434225.0,2021-02-04,10,
2021-02-04 10:23:35,2021-02-04 10:27:11.000,9501-9899 Apison Pike,COLLEGEDALE,35.05738,-85.05816,ACC2-MVC No Injuries,,1612434215.0,2021-02-04,10,
2021-02-04 09:27:33,2021-02-04 09:57:37.973,5501 Brainerd Rd,CHATTANOOGA,35.010327,-85.220476,ACC2-MVC No Injuries,,1612430853.0,2021-02-04,09,
2021-02-04 09:06:46,2021-02-04 09:18:48.767,7047 LEE HWY,CHATTANOOGA,35.047116,-85.159476,ACC1-MVC Injuries,,1612429606.0,2021-02-04,09,
2021-02-04 09:06:45,2021-02-04 09:16:00.170,7047 LEE HWY,CHATTANOOGA,35.047116,-85.159476,ACC1-MVC Injuries,,1612429605.0,2021-02-04,09,
2021-02-04 09:05:22,2021-02-04 10:26:06.160,7047 Lee Hwy,CHATTANOOGA,35.047116,-85.159476,ACC1-MVC Injuries,,1612429522.0,2021-02-04,09,
2021-02-04 08:56:49,2021-02-04 09:32:15.767,9316-9498 Apison Pike,COLLEGEDALE,35.059699,-85.06707,ACC2-MVC No Injuries,,1612429009.0,2021-02-04,08,
2021-02-04 08:52:38,2021-02-04 08:58:50.660,2500 Market St,,35.026626,-85.310189,ACCDEL-MVC Delayed,,1612428758.0,2021-02-04,08,
2021-02-04 08:44:01,2021-02-04 10:11:09.140,4412 Oakwood Dr,CHATTANOOGA,35.08868,-85.185035,ACC2-MVC No Injuries,,1612428241.0,2021-02-04,08,
2021-02-04 08:39:55,2021-02-04 09:23:27.000,4800-4851 HIGHWAY 58,CHATTANOOGA,35.08962,-85.186797,ACC2-MVC No Injuries,,1612427995.0,2021-02-04,08,
2021-02-04 08:30:40,2021-02-04 09:18:39.240,Gunbarrel Rd / E Brainerd Rd,CHATTANOOGA,35.015214,-85.163699,ACCDEL-MVC Delayed,,1612427440.0,2021-02-04,08,
2021-02-04 07:41:15,2021-02-04 08:03:41.327,6300 LEE HWY,CHATTANOOGA,35.031699,-85.183432,ACC2-MVC No Injuries,,1612424475.0,2021-02-04,07,
2021-02-04 07:34:05,2021-02-04 08:20:06.113,6919 Neville Dr,HAMILTON COUNTY,35.104362,-85.04204,ACC2-MVC No Injuries,,1612424045.0,2021-02-04,07,
2021-02-04 07:09:33,2021-02-04 07:44:27.717,1706 S HOLTZCLAW AVE,CHATTANOOGA,35.026393,-85.289222,ACC2-MVC No Injuries,,1612422573.0,2021-02-04,07,
2021-02-04 05:10:52,2021-02-04 05:40:36.000,283 E Highwater Rd,SODDY DAISY,35.314695,-85.133071,ACC2-MVC No Injuries,,1612415452.0,2021-02-04,05,
2021-02-04 03:46:29,2021-02-04 04:47:26.877,1620 E BOY SCOUT RD,CHATTANOOGA,35.168619,-85.206304,ACCDEL-MVC Delayed,,1612410389.0,2021-02-04,03,
